DEFAULT:
    urban_th: 10
    urban_sur_th: 10
    orog_diff: 100
    sftlf_th : 70
    lon_lim : 1.5
    lat_lim : 1.2
    vmax : 3 
    xmin : -2
    xmax : 5
    min_city_size: 0

Cairo-EUR-11_REMO_sftimf:
    name: Cairo
    ktype: Bwh
    coastal: False
    mountain: True
    lon: 31.25
    lat: 30.06
    domain: EUR-11
    comment: >
        closet to mountain areas. One urban cell

Cairo-EUR-11_RegCM_sftimf:
    name: Cairo
    ktype: Bwh
    coastal: False
    mountain: True
    lon: 31.25
    lat: 30.06
    domain: EUR-11
    min_city_size: 2
    comment: >
        closet to mountain areas. The limits for longitude and latitude differ due to an urban cell located at the boundary

Cairo-EUR-22_REMO_sftimf:
    name: Cairo
    ktype: Bwh
    coastal: False
    mountain: True
    lon: 31.25
    lat: 30.06
    domain: EUR-22
    comment: >
        closet to mountain areas. One urban cell

Lagos_REMO_sftimf:
    name: Lagos
    ktype: Aw
    coastal: True
    mountain: False
    lon: 3.38
    lat: 6.52
    domain: AFR-22
    comment: >
        smaller but monsoon. No urban cells above 10%


Lagos_RegCM_sftimf:
    name: Lagos
    ktype: Aw
    coastal: True
    mountain: False
    lon: 3.38
    lat: 6.52
    domain: AFR-22
    comment: >
        smaller but monsoon.  No urban cells above 10%


Johannesburg_REMO_sftimf:
    name: Johannesburg
    ktype: Cwb
    coastal: False
    mountain: False
    lon: 28.183
    lat: -25.733
    domain: AFR-22
    comment: >
        mountainous


Johannesburg_RegCM_sftimf:
    name: Johannesburg
    ktype: Cwb
    coastal: False
    mountain: False
    lon: 28.183
    lat: -25.733
    domain: AFR-22
    comment: >
        No urban cells above 10%

    
Luanda_REMO_sftimf:
    name: Luanda
    ktype: BSh
    coastal: True
    mountain: False
    lon: 13.24
    lat: -8.81
    domain: AFR-22
    comment: >
        No urban cells above 10%

        
Luanda_RegCM_sftimf:
    name: Luanda
    ktype: BSh
    coastal: True
    mountain: False
    lon: 13.24
    lat: -8.81
    domain: AFR-22
    comment: >
        No urban cells above 10%    


Khartoum_REMO_sftimf:
    name: Khartoum
    ktype: BWh
    coastal: False
    mountain: False
    lon: 32.53
    lat: 15.58
    domain: AFR-22
    comment: >
        No urban cells above 10%

        
Khartoum_RegCM_sftimf:
    name: Khartoum
    ktype: BWh
    coastal: False
    mountain: False
    lon: 32.53
    lat: 15.58
    domain: AFR-22
    comment: >
        No urban cells above 10%


Sydney_REMO_sftimf:
    name: Sydney
    ktype: Cfa
    coastal: True
    mountain: False
    lon: 151.01810
    lat: -33.79170
    domain: AUS-22
    comment: >
        near a mountain and coastal


Sydney_RegCM_sftimf:
    name: Sydney
    ktype: Cfa
    coastal: True
    mountain: False
    lon: 151.01810
    lat: -33.79170
    domain: AUS-22
    comment: >
        No urban cells above 10% 


        
Melbourne_REMO_sftimf:
    name: Melbourne
    ktype: Cfb
    coastal: True
    mountain: False
    lon: 144.96
    lat: -37.81
    domain: AUS-22
    orog_diff : 200
    min_city_size: 2
    comment: >
        To replace Brisbane, as Melbourne is bigger & has flux tower. Coastal


Melbourne_RegCM_sftimf:
    name: Melbourne
    ktype: Cfb
    coastal: True
    mountain: False
    lon: 144.96
    lat: -37.81
    domain: AUS-22
    comment: >
        To replace Brisbane, as Melbourne is bigger & has flux tower. No urban cells above 10%


MexicoCity_REMO_sftimf:
    name: Mexico City
    ktype: None
    coastal: False
    mountain: True
    lon: -99.0833
    lat: 19.4667
    domain: CAM-22
    comment: >
        mountainous

MexicoCity_RegCM_sftimf:
    name: Mexico City
    ktype: None
    coastal: False
    mountain: True
    lon: -99.0833
    lat: 19.4667
    domain: CAM-22
    comment: >
        No urban cells above 10%

    
Moscow-EUR-11_REMO_sftimf:
    name: Moscow
    ktype: Dfb
    coastal: False
    mountain: False
    lon: 37.62
    lat: 55.75
    urban_th : 40
    urban_sur_th : 10
    min_city_size: 3
    domain: EUR-11


    
Moscow-EUR-11_RegCM_sftimf:
    name: Moscow
    ktype: Dfb
    coastal: False
    mountain: False
    lon: 37.62
    lat: 55.75
    urban_th : 40
    urban_sur_th : 10
    min_city_size: 3
    domain: EUR-11



Moscow-EUR-22_REMO_sftimf:
    name: Moscow
    ktype: Dfb
    coastal: False
    mountain: False
    lon: 37.62
    lat: 55.75
    urban_sur_th : 10
    domain: EUR-22

    

Tashkent_REMO_sftimf:
    name: Tashkent
    ktype: Csa
    coastal: False
    mountain: False
    lon: 69.24
    lat: 41.31
    domain: WAS-22
    comment: >
        close to domain center. Only 2 urban cells. Close to mountains.


Tashkent_RegCM_sftimf:
    name: Tashkent
    ktype: Csa
    coastal: False
    mountain: False
    lon: 69.24
    lat: 41.31
    domain: WAS-22
    comment: >
        close to domain center. No urban cells above 10%

Tehran_REMO_sftimf:
    name: Tehran
    ktype: BSk
    coastal: False
    mountain: False
    lon: 51.42
    lat: 35.69
    domain: WAS-22
    comment: >
        Only 2 urban cells. Close to mountains.

Tehran_RegCM_sftimf:
    name: Tehran
    ktype: BSk
    coastal: False
    mountain: False
    lon: 51.42
    lat: 35.69
    domain: WAS-22
    comment: >
        No urban cells above 10%


Dhaka_REMO_sftimf:
    name: Dhaka
    ktype: Aw
    coastal: True
    mountain: False
    lon: 9401
    lat: 23.70
    domain: WAS-22
    comment: >
        No urban cells above 10%

Dhaka_RegCM_sftimf:
    name: Dhaka
    ktype: Aw
    coastal: True
    mountain: False
    lon: 9401
    lat: 23.70
    domain: WAS-22
    comment: >
        No urban cells above 10%

Beijing_REMO_sftimf:
    name: Beijing
    ktype: Cwa
    coastal: False
    mountain: False
    lon: 116.41
    lat: 39.90
    domain: EAS-22
    min_city_size: 2
    comment: >
        close to a mountain


Beijing_RegCM_sftimf:
    name: Beijing
    ktype: Cwa
    coastal: False
    mountain: False
    lon: 116.41
    lat: 39.90
    domain: EAS-22
    comment: >
       no variables for this domain

    
Tokyo_REMO_sftimf:
    name: Tokyo
    ktype: Cfa
    coastal: True
    mountain: False
    lon: 139.84
    lat: 35.65
    domain: EAS-22
    comment: >
        coastal
        
        
Tokyo_RegCM_sftimf:
    name: Tokyo
    ktype: Cfa
    coastal: True
    mountain: False
    lon: 139.84
    lat: 35.65
    domain: EAS-22
    comment: >
       no variables for this domain

       
Chengdu_REMO_sftimf:
    name: Chengdu
    ktype: Cwa
    coastal: False
    mountain: False
    lon: 104.07
    lat: 30.67
    domain: EAS-22
    comment: >
        No urban cells above 10%

        
Chengdu_RegCM_sftimf:
    name: Chengdu
    ktype: Cwa
    coastal: False
    mountain: False
    lon: 104.07
    lat: 30.67
    domain: EAS-22
    comment: >
       no variables for this domain

       
Seoul_REMO_sftimf:
    name: Seoul
    ktype: Dwa
    coastal: True
    mountain: False
    lon: 126.98
    lat: 37.57
    domain: EAS-22
    comment: >
        coastal

        
Seoul_RegCM_sftimf:
    name: Seoul
    ktype: Dwa
    coastal: True
    mountain: False
    lon: 126.98
    lat: 37.57
    domain: EAS-22
    comment: >
       no variables for this domain
       
       
Shanghai_REMO_sftimf:
    name: Shanghai
    ktype: Cfa
    coastal: True
    mountain: False
    lon: 121.47
    lat: 31.23
    domain: EAS-22
    comment: >
        no variables for this domain. Big city, and largest Pop. and GDP in China. Observations available.
 
Shanghai_RegCM_sftimf:
    name: Shanghai
    ktype: Cfa
    coastal: True
    mountain: False
    lon: 121.47
    lat: 31.23
    domain: EAS-22
    comment: >
       no variables for this domain
       

              
Paris-EUR-11_REMO_sftimf:
    name: Paris
    ktype: Cfb
    coastal: False
    mountain: False
    lon: 2.35
    lat: 48.85
    domain: EUR-11
    urban_th : 40
    urban_sur_th : 10
    comment: >
        FPS URB-RCC core city

Paris-EUR-11_RegCM_sftimf:
    name: Paris
    ktype: Cfb
    coastal: False
    mountain: False
    lon: 2.35
    lat: 48.85
    domain: EUR-11
    urban_th : 40
    urban_sur_th : 10
    min_city_size: 5
    comment: >
        FPS URB-RCC core city
              
        
Paris-EUR-22_REMO_sftimf:
    name: Paris
    ktype: Cfb
    coastal: False
    mountain: False
    lon: 2.35
    lat: 48.85
    domain: EUR-22
    urban_sur_th : 10
    min_city_size: 2

              
London-EUR-11_REMO_sftimf:
    name: London
    ktype: Cfb
    coastal: False
    mountain: False
    lon: -0.13
    lat: 51.50
    urban_th : 40
    urban_sur_th : 10
    min_city_size: 4
    domain: EUR-11
    

              
London-EUR-11_RegCM_sftimf:
    name: London
    ktype: Cfb
    coastal: False
    mountain: False
    lon: -0.13
    lat: 51.50
    urban_th : 40
    urban_sur_th : 10
    min_city_size: 4
    domain: EUR-11


              
London-EUR-22_REMO_sftimf:
    name: London
    ktype: Cfb
    coastal: False
    mountain: False
    lon: -0.13
    lat: 51.50
    urban_sur_th : 10
    domain: EUR-22
    min_city_size : 2

    
Istanbul-EUR-11_REMO_sftimf:
    name: Istanbul
    ktype: Csa
    coastal: True
    mountain: False
    lon: 28.98
    lat: 41.01
    urban_th : 40
    urban_sur_th : 10
    domain: EUR-11
    comment: >
        No urban cells above 10%

    
Istanbul-EUR-11_RegCM_sftimf:
    name: Istanbul
    ktype: Csa
    coastal: True
    mountain: False
    lon: 28.98
    lat: 41.01
    urban_th : 40
    urban_sur_th : 10
    domain: EUR-11
    min_city_size : 2
    comment: >
        cells separated by water if we remove nuclei from only one cell only two urban cells remain


Istanbul-EUR-22_REMO_sftimf:
    name: Istanbul
    ktype: Csa
    coastal: True
    mountain: False
    lon: 28.98
    lat: 41.01
    urban_sur_th : 10
    domain: EUR-22
    comment: >
        One urban cell

        
Berlin-EUR-11_REMO_sftimf:
    name: Berlin
    ktype: Cfb
    coastal: False
    mountain: False
    lon: 13.4039
    lat: 52.4683
    urban_th : 40
    urban_sur_th : 10
    domain: EUR-11
    min_city_size : 2
    
        
Berlin-EUR-11_RegCM_sftimf:
    name: Berlin
    ktype: Cfb
    coastal: False
    mountain: False
    lon: 13.4039
    lat: 52.4683
    urban_th : 40
    urban_sur_th : 10
    domain: EUR-11
    min_city_size : 3

        
Berlin-EUR-22_REMO_sftimf:
    name: Berlin
    ktype: Cfb
    coastal: False
    mountain: False
    lon: 13.4039
    lat: 52.4683
    urban_th : 10
    urban_sur_th : 10
    domain: EUR-22
    min_city_size : 3

 
Naples-EUR-11_REMO_sftimf:
    name: Naples
    ktype: CsB
    coastal: True
    mountain: False
    lon: 14.27
    lat: 40.85
    urban_th : 40
    urban_sur_th : 10
    domain: EUR-11
    comment: >
        No urban cells above 10%

        
Naples-EUR-11_RegCM_sftimf:
    name: Naples
    ktype: CsB
    coastal: True
    mountain: False
    lon: 14.27
    lat: 40.85
    urban_th : 40
    urban_sur_th : 10
    domain: EUR-11
    min_city_size: 2


Naples-EUR-22_REMO_sftimf:
    name: Naples
    ktype: CsB
    coastal: True
    mountain: False
    lon: 14.27
    lat: 40.85
    urban_th : 10
    urban_sur_th : 10
    domain: EUR-22
    comment: >
        No urban cells above 10%
        
         
Barcelona-EUR-11_REMO_sftimf:
    name: Barcelona
    ktype: Cfb
    coastal: True
    mountain: False
    lon: 2.18
    lat: 41.39
    urban_th : 40
    urban_sur_th : 10
    domain: EUR-11
    comment: >
        No urban cells above 40%
         

         
Barcelona-EUR-11_RegCM_sftimf:
    name: Barcelona
    ktype: Cfb
    coastal: True
    mountain: False
    lon: 2.18
    lat: 41.39
    urban_th : 40
    urban_sur_th : 10
    domain: EUR-11
    min_city_size: 2
    comment: >
        Onle one urban cell
          
                  
Barcelona-EUR-22_REMO_sftimf:
    name: Barcelona
    ktype: Cfb
    coastal: True
    mountain: False
    lon: 2.18
    lat: 41.39
    urban_th : 10
    urban_sur_th : 10
    domain: EUR-22
    comment: >
        No urban cells above 10%

    
Athens-EUR-11_REMO_sftimf:
    name: Athens
    ktype: Csa
    coastal: True
    mountain: False
    lon: 23.72
    lat: 37.98
    urban_th : 40
    urban_sur_th : 10
    orog_diff : 150
    domain: EUR-11
    comment: >
        Only one urban cell. Coastal

    
Athens-EUR-11_RegCM_sftimf:
    name: Athens
    ktype: Csa
    coastal: True
    mountain: False
    lon: 23.72
    lat: 37.98
    urban_th : 40
    urban_sur_th : 10
    domain: EUR-11
    comment: >
        Only one urban cell. Coastal


Athens-EUR-22_REMO_sftimf:
    name: Athens
    ktype: Csa
    coastal: True
    mountain: False
    lon: 23.72
    lat: 37.98
    urban_th : 10
    urban_sur_th : 10
    domain: EUR-22
    comment: >
        Only one urban cell. Coastal


Prague-EUR-11_REMO_sftimf:
    name: Prague
    ktype: Cfb
    coastal: False
    mountain: False
    lon: 14.42
    lat: 50.08
    urban_th : 40
    urban_sur_th : 10
    domain: EUR-11
    comment: >
        Only one urban cell. Mountainous

        
Prague-EUR-11_RegCM_sftimf:
    name: Prague
    ktype: Cfb
    coastal: False
    mountain: False
    lon: 14.42
    lat: 50.08
    urban_th : 40
    urban_sur_th : 10
    domain: EUR-11
    min_city_size: 2
    comment: >
        Only two urban cell. Mountainous
        


            
Prague-EUR-22_REMO_sftimf:
    name: Prague
    ktype: Cfb
    coastal: False
    mountain: False
    lon: 14.42
    lat: 50.08
    urban_th : 10
    urban_sur_th : 10
    domain: EUR-22
    comment: >
        Only one urban cell. Mountainous

    

Manila_REMO_sftimf:
    name: "Quezon City [Manila]"
    ktype: Am
    coastal: True
    mountain: False
    lon: 120.98
    lat: 14.60
    domain: SEA-22
    comment: >
        no urban cells above 10%

    
Manila_RegCM_sftimf:
    name: "Quezon City [Manila]"
    ktype: Am
    coastal: True
    mountain: False
    lon: 120.98
    lat: 14.60
    domain: SEA-22
    comment: >
        no urban cells above 10%
        
        
Mumbai_REMO_sftimf:
    name: Mumbai
    ktype: Am
    coastal: True
    mountain: False
    lon: 72.82
    lat: 18.96
    domain: WAS-22
    min_city_size : 2
    comment: >
        Only one urban cell. Coastal

        
Mumbai_RegCM_sftimf:
    name: Mumbai
    ktype: Am
    coastal: True
    mountain: False
    lon: 72.82
    lat: 18.96
    domain: WAS-22
    comment: >
        Only one urban cell. Coastal
        
        
NewYork_REMO_sftimf:
    name: New York
    ktype: Cfa
    coastal: True
    mountain: False
    lon: -74.2261
    lat: 40.8858
    domain: NAM-22
    min_city_size: 2


NewYork_RegCM_sftimf:
    name: New York
    ktype: Cfa
    coastal: True
    mountain: False
    lon: -74.2261
    lat: 40.8858
    domain: NAM-22
    comment: >
        no variables for this domain

BuenosAires_REMO_sftimf:
    name: Buenos Aires
    ktype: Cfa
    coastal: True
    mountain: False
    lon: -58.416
    lat: -34.559
    domain: SAM-22
    vmax : 2
    xmin : -1
    xmax : 2.5
    comment: >
        only three urban cells


        
BuenosAires_RegCM_sftimf:
    name: Buenos Aires
    ktype: Cfa
    coastal: True
    mountain: False
    lon: -58.416
    lat: -34.559
    domain: SAM-22
    vmax : 2
    xmin : -1
    xmax : 2.5
    comment: >
        only two urban cells


SaoPaulo_REMO_sftimf:
    name: "São Paulo"
    ktype: Cfb
    coastal: False
    mountain: False
    lon: -46.633
    lat: -23.550
    domain: SAM-22    
    min_city_size: 2


SaoPaulo_RegCM_sftimf:
    name: "São Paulo"
    ktype: Cfb
    coastal: False
    mountain: False
    lon: -46.633
    lat: -23.550
    domain: SAM-22    
    comment: >
        No urban cells above 10%
    
        
LosAngeles_REMO_sftimf:
    name: Los Angeles
    ktype: Csb
    coastal: True
    mountain: False
    lon: -118.24
    lat: 34.05
    domain: NAM-22
        

    
LosAngeles_RegCM_sftimf:
    name: Los Angeles
    ktype: Csb
    coastal: True
    mountain: False
    lon: -118.24
    lat: 34.05
    domain: NAM-22
    comment: >
        no variables for this domain


Singapore_REMO_sftimf:
    name: Singapore
    ktype: Af
    coastal: True
    mountain: False
    lon: 103.85
    lat: 1.29
    domain: SEA-22
    sftlf_th : 50
    comment: >
        sftlf_th is 50 because it is an island


Singapore_RegCM_sftimf:
    name: Singapore
    ktype: Af
    coastal: True
    mountain: False
    lon: 103.85
    lat: 1.29
    domain: SEA-22
    comment: >
        no urban cells above 10%


Bogota_REMO_sftimf:
    name: Bogota
    ktype: Cfb
    coastal: False
    mountain: True
    lon: -74.06
    lat: 4.62
    domain: SAM-22
    comment: >
        only 2 urban cells. Mountainous



Bogota_RegCM_sftimf:
    name: Bogota
    ktype: Cfb
    coastal: False
    mountain: True
    lon: -74.06
    lat: 4.62
    domain: SAM-22
    comment: >
        no urban cells above 10%


Jakarta_REMO_sftimf:
    name: Jakarta
    ktype: Af
    coastal: True
    mountain: False
    lon: 106.83
    lat: -6.18
    vmax : 4
    xmin : -2
    xmax : 2.3
    domain: SEA-22
    comment: >
        Only one urban cells


Jakarta_RegCM_sftimf:
    name: Jakarta
    ktype: Af
    coastal: True
    mountain: False
    lon: 106.83
    lat: -6.18
    vmax : 4
    xmin : -2
    xmax : 2.3
    domain: SEA-22


NewDelhi_REMO_sftimf:
    name: "Delhi [New Delhi]"
    ktype: BSh
    coastal: False
    mountain: False
    lon: 77.22
    lat: 28.64
    domain: WAS-22
    vmax: 1.25
    xmin: -0.6
    xmax: 2.3
    comment: >
        Only two urban cells
    
    
NewDelhi_RegCM_sftimf:
    name: "Delhi [New Delhi]"
    ktype: BSh
    coastal: False
    mountain: False
    lon: 77.22
    lat: 28.64
    domain: WAS-22
    vmax: 1.25
    xmin: -0.6
    xmax: 2.3
    comment: >
        Only one urban cells
  

Chicago_REMO_sftimf:
    name: Chicago
    ktype: Dfa
    coastal: False
    mountain: False
    lon: -87.55
    lat: 41.73
    domain: NAM-22
    min_city_size: 2
    
    
Chicago_RegCM_sftimf:
    name: Chicago
    ktype: Dfa
    coastal: False
    mountain: False
    lon: -87.55
    lat: 41.73
    domain: NAM-22
    comment: >
        no variables for this domain
    
    
Montreal_REMO_sftimf:
    name: Montreal
    ktype: Dfb
    coastal: False
    mountain: False
    lon: -73.56
    lat: 45.50
    domain: NAM-22
    comment: >
        Only two urban cells

        
Montreal_RegCM_sftimf:
    name: Montreal
    ktype: Dfb
    coastal: False
    mountain: False
    lon: -73.56
    lat: 45.50
    domain: NAM-22
    comment: >
        no variables for this domain
    

Lima_REMO_sftimf:
    name: Lima
    ktype: ET
    coastal: True
    mountain: True
    lon: -77.03
    lat: -12.04
    domain: SAM-22
    comment: >
        no non_urban cells close to the only urban cell

Lima_RegCM_sftimf:
    name: Lima
    ktype: ET
    coastal: True
    mountain: True
    lon: -77.03
    lat: -12.04
    domain: SAM-22
    comment: >
        no urban cells above 10%


SantiagoChile_REMO_sftimf:
    name: Santiago
    country: Chile
    ktype: Csb
    coastal: True
    mountain: True
    lon: -70.65
    lat: -33.46
    domain: SAM-22
    comment: >
        Only two urban cells
    
SantiagoChile_RegCM_sftimf:
    name: Santiago
    country: Chile
    ktype: Csb
    coastal: True
    mountain: True
    lon: -70.65
    lat: -33.46
    domain: SAM-22
    comment: >
        no urban cells above 10%

Riyadh_REMO_sftimf:
    name: Riyadh
    ktype: BWh
    coastal: False
    mountain: False
    lon: 46.73300
    lat: 24.7000
    domain: WAS-22
    comment: >
        Only two urban cells


    
Riyadh_RegCM_sftimf:
    name: Riyadh
    ktype: BWh
    coastal: False
    mountain: False
    lon: 46.73300
    lat: 24.7000
    domain: WAS-22
    comment: >
        no urban cells above 10%



Baghdad_REMO_sftimf:
    name: Baghdad
    ktype: BWh
    coastal: False
    mountain: False
    lon: 44.40
    lat: 33.34
    domain: WAS-22
    comment: >
        only one urban cells



Baghdad_RegCM_sftimf:
    name: Baghdad
    ktype: BWh
    coastal: False
    mountain: False
    lon: 44.40
    lat: 33.34
    domain: WAS-22
    comment: >
        no urban cells above 10%

